{ "places": [
    {
        "name": "Le Node",
        "lat": 44.840458,
        "lon": -0.570447,
        "address":  "12 rue des Faussets",
        "url": "http://bxno.de/",
        "type" : "coworking",
        "power": {"available": true, "comment": "at least 8"},
        "wifi": {"available": true}
    },
    {
        "name": "Coolworking",
        "lat": 44.843098,
        "lon": -0.572875,
        "address": "9 rue de Condé",
        "url": "http://www.coolworking.fr/",
        "type" : "coworking",
        "power": {"available": true},
        "wifi": {"available": true}
    },
    {
        "name": "Kowork",
        "lat": 44.85437,
        "lon": -0.56601,
        "address": "92 Quai des Chartrons",
        "url": "http://www.kowork.fr/",
        "type": "coworking",
        "power": {"available": true},
        "wifi": {"available": true}
    },
    {
        "name": "Darwin",
        "lat": 44.84978,
        "lon": -0.56069,
        "address": "87 Quai des Queyries",
        "url": "http://www.coworkers.eu/",
        "type": "coworking",
        "power": {"available": true},
        "wifi": {"available": true}
    },
    {
        "name": "Chez Vincent",
        "lat": 44.823521,
        "lon": -0.618585,
        "address": "27 rue de Lyon",
        "type": "home coworking",
        "power": {"available": true},
        "wifi": {"available": true}
    },
    {
        "name": "Médiathèque Jacques Elul",
        "lat": 44.799583,
        "lon": -0.642509,
        "address": "21 Résidence Camponac",
        "url": "http://mediatheque.mairie-pessac.fr/",
        "type": "library",
        "power": {"available": true},
        "wifi": {"available": true}
    },
    {
        "name": "Fnac and Columbus",
        "lat": 44.8399427,
        "lon": -0.5739308,
        "openHours": "Monday to Saturday - 10:00am to 7:30pm and Sundays - 11:00am to 7:00pm",
        "address": "50, rue Ste Catherine",
        "url": "http://www.fnac.com/Bordeaux/Fnac-Bordeaux/cl116/w-4",
        "type": "shop and coffee",
        "power": {"available": true},
        "wifi": {"available": true},
        "comment": "go upstairs, at the top"
    },
    {
        "name": "Café des Arts",
        "lat": 44.8347446,
        "lon": -0.5731186,
        "openHours": "Monday to Sundays - 7:30am to 11:30pm",
        "address": "138, Cours Victor Hugo",
        "type": "brasserie/coffee",
        "power": {"available": true},
        "wifi": {"available": true}
    },
    {
        "name": "Conseil Départemental de Gironde",
        "lat": 44.83587,
        "lon": -0.58602,
        "openHours": "Monday to Thursday - 8:15am to 5:15pm - and Friday - 8:15am to 4:45pm",
        "address": "1, Esplanade Charles de Gaulle",
        "url": "http://www.gironde.fr",
        "type": "public place",
        "power": {"available": true},
        "wifi": {"available": true},
        "comment": "wifi, with your id card"
    },
    {
        "name": "Pause Nature",
        "lat": 44.840878,
        "lon": -0.5598081,
        "openHours": "Monday to Friday - 9:00am to 3:30pm",
        "address": "26/28, Place de Stalingrad",
        "url": "http://www.pausenature.fr",
        "type": "coffee/snack",
        "power": {"available": true},
        "wifi": {"available": true}
    },
    {
        "name": "Bar des Vedettes - Chez Fred",
        "lat": 44.83839,
        "lon": -0.56960,
        "openHours": "Monday to Friday - 7:30am to 2:00am",
        "address": "13, place du palais",
        "url": "le-burger-fermier.fr",
        "type": "restaurant",
        "power": {"available": true},
        "wifi": {"available": true}
    },
    {
        "name": "Buger Fermier",
        "lat": 44.82598,
        "lon": -0.55744,
        "openHours": "Monday to Saturday - 9:30am to 11:00pm",
        "address": "Place de Casablanca",
        "type": "restaurant",
        "power": {"available": true},
        "wifi": {"available": true}
    },
    {
        "name": "CAPC - Musée d'Art Contemporain de Bordeaux",
        "lat": 44.84888,
        "lon": -0.57316,
        "openHours": "11:00am to 6:00pm - wendesday - 11:00am to 8:00pm - closed on Monday",
        "address": "7, rue Ferrère",
        "url": "http://www.capc-bordeaux.fr",
        "type": "museum",
        "power": {"available": true},
        "wifi": {"available": true}
    },
    {
        "name": "Billy Factory",
        "lat": 44.8214926,
        "lon": -0.5825119,
        "openHours": "Monday to Saturday - 11:30am to 9:00pm - Saturday - 10:00am to 9:00pm",
        "address": "5, Place Louis Barthou",
        "url": "http://www.billyfactory.com",
        "type": "coffee shop",
        "power": {"available": true},
        "wifi": {"available": true},
        "comment": "Trolley: Barrière St Genès"
    },
    {
        "name": "Brasserie Terminus",
        "lat": 44.8265365,
        "lon": -0.5568704,
        "openHours": "Monday to Sunday - 11:00am to 10:30pm",
        "address": "28, Rue Charles Domercq",
        "type": "brasserie",
        "power": {"available": true},
        "wifi": {"available": true},
        "comment": "Trolley: Gare Saint-Jean"
    }
]
}
